City,Cloudiness,Country,Date,Humidity,Lat,Lng,Max Temp,Wind Speed
Cape Town,100,CL,1653244595,89,-36.413,-71.9028,49.42,17.98
Luchegorsk,13,RU,1653244595,90,46.4764,134.2569,44.69,2.48
Busselton,65,AU,1653244596,67,-33.65,115.3333,61.27,23.49
Rio Branco,21,GR,1653244596,61,38.3,21.7833,73.78,8.01
Mataura,100,NZ,1653244410,91,-46.1927,168.8643,44.33,7.65
Arraial Do Cabo,4,BR,1653244597,50,-22.8362,-46.646,67.96,4.65
Chernyshevskiy,75,RU,1653244597,78,63.0128,112.4714,47.41,3.56
Saint-Philippe,38,RE,1653244598,76,-21.3585,55.7679,71.19,11.23
Bilibino,79,RU,1653244339,70,68.0546,166.4372,43.16,3.89
Itarema,61,BR,1653244598,81,-2.9248,-39.9167,81.79,8.01
Albany,86,US,1653244599,48,42.6001,-73.9662,91.92,7.63
Morant Bay,100,JM,1653244599,68,17.9,-76.4333,85.68,10.78
Tessalit,48,ML,1653244599,14,20.1986,1.0114,95.02,11.68
Tura,98,IN,1653244600,93,25.5198,90.2201,72.48,3.62
Souillac,20,MU,1653244509,69,-20.5167,57.5167,75.58,11.5
Grand River South East,100,US,1653244600,12,38.8755,-109.5012,69.94,7.43
Innisfail,99,AU,1653244601,86,-17.5333,146.0333,71.2,5.3
Port Elizabeth,17,CD,1653244601,68,-7.0349,29.7638,73.8,5.21
Hermanus,69,ZA,1653244602,85,-34.4187,19.2345,60.31,7.63
Kodiak,75,US,1653244551,76,57.79,-152.4072,49.51,14.97
Bredasdorp,38,ZA,1653244602,90,-34.5322,20.0403,56.37,5.41
Castro,4,BR,1653244603,51,-24.7911,-50.0119,64.49,5.06
Goderich,100,CA,1653244603,87,43.7501,-81.7165,46.72,12.66
Punta Arenas,95,PH,1653244604,91,8.9897,125.34,75.74,5.03
Aktau,0,KZ,1653244604,68,43.65,51.2,59.58,17.94
Tazovskiy,100,RU,1653244604,95,67.4667,78.7,35.19,14.79
Ushuaia,20,AR,1653244507,81,-54.8,-68.3,40.62,2.3
Aleksandrovsk-Sakhalinskiy,100,RU,1653244393,92,50.8975,142.1561,36.57,6.26
Tyrma,100,RU,1653244605,89,50.0833,132.1667,46.89,6.55
Ngunguru,100,NZ,1653244605,81,-35.6167,174.5,56.37,8.01
Iqaluit,100,CA,1653244606,79,63.7506,-68.5145,26.33,24.16
Bluff,100,NZ,1653244606,73,-46.6,168.3333,50.31,24.79
Hami,94,CN,1653244607,18,42.8,93.45,80.17,12.66
Rikitea,2,PF,1653244607,76,-23.1203,-134.9692,75.85,13.69
Comodoro Rivadavia,74,BR,1653244608,35,-13.6631,-59.7858,84.78,4.05
Ancud,0,CL,1653244410,68,-41.8697,-73.8203,48.94,14.14
Mar Del Plata,40,ES,1653244609,88,43.4002,-4.0094,65.25,25.32
Gomel,0,BY,1653244609,87,52.4345,30.9754,51.82,6.71
Port Hardy,17,CD,1653244601,68,-7.0349,29.7638,73.8,5.21
Biak,98,ID,1653244609,83,-0.9131,122.8766,76.01,5.82
Cape Elizabeth,100,CL,1653244610,89,-36.413,-71.9028,49.42,17.98
Nalut,0,LY,1653244610,6,30.3333,10.85,79.05,7.38
San Patricio,100,ML,1653244611,34,13.3034,-4.8956,91.85,15.46
Bethel,0,US,1653244276,58,41.3712,-73.414,92.01,9.22
Chimore,95,BO,1653244611,70,-16.9833,-65.1333,72.64,2.91
Dondo,56,MZ,1653244612,97,-19.6094,34.7431,74.71,5.46
Srednekolymsk,99,RU,1653244612,51,67.45,153.6833,50.56,9.69
Medina,0,SA,1653244612,6,24.4686,39.6142,100.83,6.91
Garowe,98,SO,1653244613,40,8.4054,48.4845,87.84,20.87
Asau,96,RO,1653244613,75,46.4333,26.4,58.28,0.96
Constitucion,100,CL,1653244394,86,-35.3333,-72.4167,53.94,9.53
Tuktoyaktuk,100,CA,1653244499,74,69.4541,-133.0374,23.0,8.05
Kjopsvik,100,NO,1653244614,95,68.097,16.3742,49.87,2.59
Acarau,33,BR,1653244615,78,-2.8856,-40.12,82.15,7.43
Oriximina,15,BR,1653244427,60,-1.7656,-55.8661,85.51,5.03
Jamestown,100,US,1653244616,94,42.097,-79.2353,57.52,14.97
Puerto Ayacucho,0,ES,1653244318,77,36.5939,-6.233,73.62,14.97
Sitka,40,US,1653244616,76,57.0531,-135.33,51.69,6.91
Savonlinna,0,FI,1653244617,50,61.8699,28.88,51.85,3.44
Sioux Lookout,40,US,1653244617,29,42.7333,-96.2336,58.98,16.11
Sao Joao Da Barra,0,IN,1653244488,45,20.5113,76.2129,82.15,17.36
Cabo Rojo,16,BR,1653244618,82,-8.2833,-35.0333,84.13,13.78
Kandrian,50,PG,1653244618,86,-6.2167,149.55,77.14,4.03
Tabasco,40,MX,1653244477,36,18.0,-92.6667,98.71,10.36
Hobart,100,AU,1653244619,84,-42.8794,147.3294,50.25,11.5
Tahta,0,EG,1653244619,18,26.7693,31.5021,78.26,12.84
New Norfolk,96,LR,1653244620,96,6.6518,-10.5932,74.3,3.56
San Rafael,100,ML,1653244620,34,13.3034,-4.8956,91.85,15.46
Ponta Do Sol,100,PT,1653244621,92,38.7333,-28.2667,59.68,7.0
Lagoa,100,PT,1653244589,92,39.05,-27.9833,62.24,5.97
Coquimbo,20,CL,1653244621,77,-29.9533,-71.3436,60.53,13.8
Ribeira Grande,100,ES,1653244622,93,42.7461,-8.4439,64.09,7.0
Kamenka,68,RU,1653244622,94,51.3223,42.7678,43.57,7.94
Leeds,40,GB,1653244407,64,53.7964,-1.5477,66.29,12.66
Carnarvon,33,AU,1653244623,57,-24.8667,113.6333,70.86,18.01
Luderitz,24,NA,1653244623,69,-26.6481,15.1594,58.19,7.27
Leningradskiy,100,RU,1653244623,92,69.3833,178.4167,33.67,3.94
Escanaba,100,US,1653243820,88,45.7453,-87.0646,51.51,4.61
Ilulissat,75,GL,1653244624,93,69.2167,-51.1,35.62,5.75
Magadan,100,RU,1653244624,96,59.5667,150.8,40.53,14.83
Cabo San Lucas,16,BR,1653244625,82,-8.2833,-35.0333,84.13,13.78
Sinjar,66,IQ,1653244625,9,36.3209,41.8754,80.51,11.88
Butaritari,59,KI,1653244626,79,3.0707,172.7902,81.34,10.8
Porto Novo,75,PT,1653244626,83,41.1496,-8.611,67.28,5.75
Sabha,0,LY,1653244627,9,27.0377,14.4283,80.53,8.52
Mahebourg,20,MU,1653244584,69,-20.4081,57.7,75.49,11.5
Tasiilaq,100,GL,1653244627,97,65.6145,-37.6368,35.76,8.03
Kjollefjord,49,NO,1653244628,83,70.9457,27.3465,46.45,3.36
Yulara,100,AU,1653244438,43,-25.2406,130.9889,56.73,8.34
Bodden Town,29,GB,1653244628,69,51.1954,-2.5161,62.53,5.39
Susuman,100,RU,1653244629,96,62.7833,148.1667,32.95,2.8
Ixtapa,0,MX,1653244573,69,20.7,-105.2,79.83,9.22
Thompson,75,CA,1653244630,29,55.7435,-97.8558,60.96,6.91
Coxim,0,BR,1653244630,21,-18.5067,-54.76,85.96,1.43
Port Lincoln,17,CD,1653244630,68,-7.0349,29.7638,73.8,5.21
Kaitangata,83,NZ,1653244631,84,-46.2817,169.8464,46.53,13.11
Westport,0,US,1653244631,58,41.1415,-73.3579,97.29,11.5
Longyearbyen,75,SJ,1653244626,87,78.2186,15.6401,35.44,0.0
Waipawa,95,NZ,1653244632,75,-41.4122,175.5153,49.53,11.34
Krasnoye,100,UA,1653244632,88,49.9145,24.6134,49.21,5.19
Half Moon Bay,100,LR,1653244633,90,6.3807,-10.6953,76.37,6.62
Dickinson,75,US,1653244633,72,29.4608,-95.0513,85.15,9.22
Bambanglipuro,78,ID,1653244633,88,-7.95,110.2833,75.87,3.58
Nouadhibou,1,MR,1653244634,73,20.931,-17.0347,69.78,21.85
Coahuayana,0,MX,1653244634,47,18.7333,-103.6833,90.25,8.57
Talnakh,100,RU,1653244503,100,69.4865,88.3972,33.21,2.08
Russell,40,US,1653244635,48,32.3502,-85.1999,88.02,8.05
Matara,9,LK,1653244635,89,5.9485,80.5353,78.69,10.98
Lorengau,90,PG,1653244636,70,-2.0226,147.2712,82.9,11.56
Redmond,54,US,1653244372,54,47.674,-122.1215,70.05,1.99
Dikson,76,RU,1653244636,92,73.5069,80.5464,21.96,8.61
Jeremie,100,HT,1653244637,73,18.65,-74.1167,82.65,2.93
Yanaul,95,RU,1653244637,84,56.2719,54.9309,35.6,5.66
Campos,75,BR,1653244637,53,-21.75,-41.3,77.05,13.8
Bathsheba,20,BB,1653244638,70,13.2167,-59.5167,84.81,18.41
Praia Da Vitoria,20,CV,1653244638,57,14.9215,-23.5087,77.54,19.57
Olafsvik,1,IS,1653244638,64,64.8945,-23.7142,45.55,11.9
Chumikan,100,RU,1653244639,97,54.7183,135.315,29.95,6.8
Gizo,19,SB,1653244639,76,-8.103,156.8419,81.79,5.77
Leh,100,IN,1653244640,45,34.1667,77.5833,47.1,8.55
Aleksandrovka,9,UA,1653244640,71,46.8383,32.7612,55.27,9.46
Port Hedland,17,CD,1653244601,68,-7.0349,29.7638,73.8,5.21
Port Blair,17,CD,1653244641,68,-7.0349,29.7638,73.8,5.21
East London,100,IS,1653244641,99,65.0,-15.0,42.55,4.9
Qaanaaq,100,GL,1653244641,77,77.484,-69.3632,25.36,2.71
Nogales,0,MX,1653244642,9,31.3086,-110.9422,84.33,10.36
Vostochnyy,64,RU,1653244642,67,55.8167,37.8667,46.67,6.22
Georgetown,20,MY,1653244643,88,5.4112,100.3354,82.33,0.0
Vila Franca Do Campo,93,PT,1653244643,86,42.0304,-8.1588,58.69,3.27
Stalybridge,100,GB,1653244644,71,53.4841,-2.0591,65.48,5.99
Hilo,0,US,1653244348,70,19.7297,-155.09,86.29,5.99
Khudumelapye,0,BW,1653244644,53,-23.8833,24.75,52.66,2.13
Nuuk,75,GL,1653244645,87,64.1835,-51.7216,36.21,32.03
Acapulco,75,MX,1653244599,62,16.8634,-99.8901,85.82,8.05
Janesville,40,US,1653244645,37,42.6828,-89.0187,61.14,16.11
Tocopilla,12,CL,1653244646,62,-22.092,-70.1979,69.73,9.51
Atuona,31,PF,1653244646,81,-9.8,-139.0333,77.34,17.4
Adrar,94,MR,1653244582,10,20.5022,-10.0711,98.73,8.23
Iquique,27,CL,1653244647,72,-20.2208,-70.1431,64.44,7.63
Havoysund,11,NO,1653244647,79,70.9963,24.6622,46.63,3.65
Vao,100,NC,1653244648,86,-22.6667,167.4833,74.88,9.66
Namibe,0,AO,1653244648,72,-15.1961,12.1522,69.6,3.13
Barrow,100,US,1653244648,86,71.2906,-156.7887,23.02,11.5
Vaini,75,TO,1653244649,94,-21.2,-175.2,73.56,3.44
Orlik,85,RU,1653244649,53,52.5178,99.825,51.58,2.15
Margate,100,GB,1653244649,70,51.3813,1.3862,64.87,1.99
Abrau-Dyurso,100,RU,1653244650,85,44.69,37.59,54.86,1.74
Haines Junction,95,US,1653244650,88,59.2286,-135.4441,47.88,1.25
Cayenne,75,GF,1653244651,1,4.9333,-52.3333,83.08,6.91
Faanui,12,PF,1653244651,73,-16.4833,-151.75,80.44,15.26
Beringovskiy,100,RU,1653244651,77,63.05,179.3167,39.72,8.41
Yellowknife,100,CA,1653244652,80,62.456,-114.3525,36.12,6.91
Jutai,90,BR,1653244652,78,-5.1833,-68.9,82.22,0.6
Avarua,12,CK,1653244653,78,-21.2078,-159.775,78.98,12.01
Chara,100,RU,1653244653,78,56.9064,118.2631,43.57,1.23
Port Augusta,17,CD,1653244358,68,-7.0349,29.7638,73.8,5.21
Ahipara,100,NZ,1653244653,75,-35.1667,173.1667,58.89,10.22
Chuy,39,UY,1653244654,57,-33.6971,-53.4616,63.21,4.88
Tuatapere,65,NZ,1653244493,84,-46.1333,167.6833,43.93,7.61
Andenes,100,NO,1653244654,93,69.3143,16.1194,46.38,3.44
Fairbanks,0,US,1653244403,31,64.8378,-147.7164,63.01,6.91
Winnemucca,0,US,1653244655,27,40.973,-117.7357,62.65,8.05
Durango,0,MX,1653244579,11,24.8333,-104.8333,82.83,8.52
Flexeiras,20,BR,1653244656,79,-9.1975,-35.7808,80.37,10.92
Padang,71,ID,1653244656,87,-0.9492,100.3543,76.78,3.98
Cherskiy,93,RU,1653244391,53,68.75,161.3,50.2,14.81
Khatanga,100,RU,1653244406,93,71.9667,102.5,31.82,6.78
Talikota,9,IN,1653244657,72,16.4833,76.3167,79.39,23.98
Jieshi,100,CN,1653244657,89,22.8134,115.8257,76.95,13.49
Molina,100,CL,1653244659,100,-35.1167,-71.2833,54.37,3.44
Monrovia,100,LR,1653244659,86,6.3005,-10.7969,77.52,9.48
Necochea,100,AR,1653244660,47,-38.5473,-58.7368,60.98,12.91
Puerto Ayora,0,ES,1653244660,77,36.5939,-6.233,73.62,14.97
Chissamba,75,AO,1653244661,49,-12.1667,17.3333,63.52,2.66
Parana,96,AR,1653244661,57,-31.732,-60.5238,72.52,10.2
Hasaki,100,JP,1653244585,83,35.7333,140.8333,59.4,6.31
Laela,41,TZ,1653244662,70,-8.5667,32.05,62.04,3.51
Dunedin,67,NZ,1653244663,69,-45.8742,170.5036,47.8,8.99
Norman Wells,1,US,1653244421,47,35.2226,-97.4395,68.02,8.99
Nelson Bay,3,NZ,1653244663,80,-41.2833,173.2833,45.16,5.53
Lompoc,0,US,1653244659,65,34.6391,-120.4579,73.69,12.66
Hofn,75,IS,1653244437,54,64.2539,-15.2082,53.62,20.71
Ust-Nera,100,RU,1653244664,89,64.5667,143.2,35.1,4.07
Lingao,78,CN,1653244665,91,19.9103,109.6859,77.5,12.75
Roma,100,US,1653244665,57,43.2128,-75.4557,81.73,6.91
Aklavik,100,CA,1653244665,86,68.2191,-135.0107,26.6,8.05
Rio Branco Do Sul,21,GR,1653244666,61,38.3,21.7833,73.78,8.01
Natal,100,BR,1653244666,100,-5.795,-35.2094,79.45,26.46
Severo-Kurilsk,100,RU,1653244667,96,50.6789,156.125,40.86,15.37
Hamilton,100,US,1653244667,74,39.1834,-84.5333,67.59,12.66
Olinda,75,BR,1653244671,65,-8.0089,-34.8553,83.93,18.41
Nikolskoye,7,RU,1653244672,57,59.7035,30.7861,51.69,2.21
Portales,97,US,1653244672,26,34.1862,-103.3344,70.34,10.76
Saskylakh,100,RU,1653244672,99,71.9167,114.0833,33.96,6.42
Guerrero Negro,1,MX,1653244447,27,17.6667,-100.0,94.12,4.76
Gazojak,0,TM,1653244673,35,41.1875,61.4036,68.49,5.01
Torbay,75,CA,1653244674,35,47.6666,-52.7314,64.27,18.41
Shieli,0,KZ,1653244674,20,44.1667,66.75,61.66,4.52
Teeli,97,RU,1653244674,29,51.0333,90.2333,66.27,4.18
Balad,14,IQ,1653244675,11,34.0164,44.1453,87.67,6.17
Ucluelet,100,CA,1653244606,85,48.9329,-125.5528,53.1,1.01
Deer Lake,100,US,1653244676,55,38.622,-91.7968,63.5,9.91
Hualmay,44,PE,1653244676,74,-11.0964,-77.6139,68.97,7.34
Christchurch,8,NZ,1653244677,89,-43.5333,172.6333,40.32,3.44
Vestmannaeyjar,0,IS,1653244677,66,63.4427,-20.2734,54.59,6.91
Beyla,81,GN,1653244678,86,8.6833,-8.6333,71.53,2.77
Touros,24,BR,1653244678,85,-5.1989,-35.4608,79.3,13.62
Muros,76,ES,1653244678,92,42.7762,-9.0603,63.68,8.84
Mgachi,96,RU,1653244679,92,51.05,142.2667,35.19,4.0
Suntar,41,RU,1653244679,82,62.1444,117.6319,45.91,0.58
Kismayo,100,SO,1653244680,84,-0.3582,42.5454,80.37,16.24
Mago,100,RU,1653244680,91,53.2514,140.1822,34.3,1.16
Plettenberg Bay,100,DE,1653244681,83,51.2167,7.8833,62.65,4.14
Lebu,100,CL,1653244682,87,-37.6167,-73.65,52.27,11.05
Mys Shmidta,100,RU,1653244682,98,62.0589,48.6201,32.94,9.86
Hibbing,100,US,1653244683,46,47.4272,-92.9377,50.58,6.91
Zemio,100,CF,1653244684,73,5.0314,25.1361,74.61,1.9
Provideniya,100,RU,1653244684,43,64.3833,-173.3,49.15,10.78
Lata,62,PT,1653244685,82,40.1629,-8.3327,63.81,8.12
Mareeba,76,AU,1653244501,90,-17.0,145.4333,68.72,2.19
Okhotsk,100,RU,1653244685,99,59.3833,143.3,34.21,12.5
Samarai,30,PG,1653244686,79,-10.6167,150.6667,80.47,6.87
Kaabong,97,UG,1653244686,75,3.4836,34.1492,66.15,3.69
Chokurdakh,100,RU,1653244687,100,70.6333,147.9167,32.68,3.36
Podyuga,100,RU,1653244687,73,61.095,40.8647,33.35,7.58
Rocha,22,UY,1653244688,58,-34.4833,-54.3333,64.58,2.86
Labuhan,100,ID,1653244580,84,-6.8844,112.2051,79.52,10.96
Vacaria,100,BR,1653244688,68,-28.5122,-50.9339,58.48,1.74
Hay River,100,GB,1653244689,87,52.0705,-3.1274,63.27,5.97
Palmer,75,US,1653244455,52,42.1584,-72.3287,91.51,8.05
Katsuura,66,JP,1653244689,88,35.1333,140.3,64.9,9.51
Sangar,62,RU,1653244690,96,63.9242,127.4739,37.33,1.45
Nyurba,26,RU,1653244393,69,63.2842,118.3319,46.18,0.49
Nome,0,US,1653244691,22,64.5011,-165.4064,62.67,16.11
Bilma,95,NE,1653244691,9,18.6853,12.9164,92.05,6.51
Mount Gambier,98,GB,1653244691,83,53.6597,-1.8537,63.88,10.69
Yinchuan,14,CN,1653244692,48,38.4681,106.2731,64.29,5.59
Ostersund,0,SE,1653244692,35,63.1792,14.6357,55.85,3.44
Isangel,70,VU,1653244693,85,-19.55,169.2667,75.47,6.85
Alofi,5,NU,1653244693,100,-19.0595,-169.9187,66.09,1.14
Flinders,100,AU,1653244651,91,-34.5833,150.8552,55.18,4.0
Awjilah,0,LY,1653244661,22,29.1081,21.2869,77.0,10.67
Beloha,4,MG,1653244694,84,-25.1667,45.05,65.77,6.89
Urucui,100,BR,1653244695,51,-7.2294,-44.5561,86.49,2.91
Risor,99,NO,1653244695,82,58.7206,9.2342,56.28,10.94
Esperance,24,AU,1653244430,74,-33.8667,121.9,63.0,10.92
Sao Filipe,0,IN,1653244488,45,20.5113,76.2129,82.15,17.36
Hirara,97,JP,1653244696,78,24.8,125.2833,76.68,12.19
Sarankhola,66,BD,1653244696,85,22.3082,89.7897,80.85,2.82
Isoka,6,ZM,1653244697,70,-10.1606,32.6335,64.49,2.35
Chapais,100,CA,1653244697,93,49.7834,-74.8492,33.58,4.54
Pacific Grove,100,US,1653244698,44,38.482,-90.7415,64.36,1.01
Savannah Bight,100,US,1653244403,74,32.0835,-81.0998,87.94,11.5
Krasnyy Chikoy,69,RU,1653244698,77,54.5678,31.4333,43.23,5.37
Port Alfred,17,CD,1653244601,68,-7.0349,29.7638,73.8,5.21
Tiksi,100,RU,1653244699,87,71.6872,128.8694,30.58,5.44
Talaya,100,RU,1653244699,86,61.3833,152.75,34.11,4.47
Riberalta,40,BO,1653244700,51,-10.9833,-66.1,88.0,6.91
Manta,40,EC,1653244700,70,-0.95,-80.7333,83.98,11.5
Iguape,5,BR,1653244700,75,-24.7081,-47.5553,68.76,8.93
Salitral,6,PE,1653244702,40,-4.8572,-80.6811,88.79,11.56
Havre-Saint-Pierre,75,CA,1653244702,51,50.2334,-63.5986,62.96,4.61
Hithadhoo,90,MV,1653244703,72,-0.6,73.0833,83.86,11.77
Filingue,97,NE,1653244703,33,14.3521,3.3168,91.49,12.59
Uruzgan,0,AF,1653244703,18,32.8333,66.0,61.83,7.11
Yuanping,99,CN,1653244704,59,38.7153,112.7575,61.52,3.24
Mezhdurechenskiy,64,RU,1653244704,93,59.6,65.9333,38.43,8.7
Senador Jose Porfirio,38,HT,1653244705,39,18.8188,-71.9016,91.22,2.51
Porbandar,65,IN,1653244705,79,21.6422,69.6093,83.39,19.37
Broome,0,US,1653244705,57,42.2506,-75.833,85.98,12.66
Asfi,100,MA,1653244706,73,32.2994,-9.2372,68.72,21.14
Jauja,98,PE,1653244706,47,-11.7758,-75.4966,61.02,7.81
Aswan,0,EG,1653244707,14,24.0934,32.907,85.3,9.22
Tarnos,100,FR,1653244707,88,43.5417,-1.4628,71.42,16.11
Alexandria,0,EG,1653244704,73,31.2156,29.9553,69.76,13.8
Vangaindrano,4,MG,1653244708,92,-23.35,47.6,66.7,3.85
Kavieng,14,PG,1653244708,67,-2.5744,150.7967,82.67,17.22
Ganzhou,100,CN,1653244708,97,28.8184,115.4327,65.19,2.28
Alpatovo,0,RU,1653244709,52,43.7028,45.2415,65.23,3.47
Pevek,89,RU,1653244709,89,69.7008,170.3133,34.65,11.32
Tautira,26,PF,1653244710,74,-17.7333,-149.15,79.23,14.63
Vallenar,0,CL,1653244710,22,-28.5708,-70.7581,79.34,6.87
Rio Cuarto,21,GR,1653244666,61,38.3,21.7833,73.78,8.01
Waddan,0,LY,1653244711,10,29.1614,16.139,79.21,6.91
Watertown,40,US,1653244645,45,42.3709,-71.1828,98.31,11.5
Kruisfontein,100,ZA,1653244712,76,-34.0033,24.7314,54.88,2.8
Cam Ranh,100,AR,1653244712,36,-38.9838,-67.8222,50.22,26.53
Rundu,0,NA,1653244713,38,-17.9333,19.7667,52.68,4.5
Abu Samrah,0,IN,1653244713,66,24.6,72.7,74.08,14.12
Puro,95,PH,1653244714,80,12.4841,123.3827,80.87,5.01
Aguimes,20,ES,1653244714,60,27.9054,-15.4461,70.66,26.46
Rudbar,0,AF,1653244715,18,30.15,62.6,74.37,21.21
Jiutai,58,CN,1653244715,50,44.1525,125.8328,61.14,7.27
Poum,0,NC,1653244716,79,-20.2333,164.0167,78.33,11.18
Lavrentiya,100,RU,1653244717,76,65.5833,-171.0,38.86,9.1
Fredericksburg,40,US,1653244717,56,38.3032,-77.4605,93.61,9.22
Oranjestad,20,AW,1653244717,62,12.524,-70.027,87.75,26.46
Vila Velha,93,PT,1653244718,86,42.0304,-8.1588,58.69,3.27
Talara,0,PE,1653244719,64,-4.5772,-81.2719,75.96,20.71
Pahrump,62,US,1653244718,8,36.2083,-115.9839,86.25,4.0
Kapaa,75,US,1653244719,86,22.0752,-159.319,78.78,11.5
Olga,5,RU,1653244720,98,43.7444,135.2892,46.74,7.72
Markova,100,UA,1653244720,92,48.6758,24.4138,48.83,5.3
Sorland,100,NO,1653244721,92,67.667,12.6934,48.06,8.03
Neuquen,75,AR,1653244493,87,-38.9516,-68.0591,49.89,8.05
Havre,0,FR,1653244721,82,49.5833,0.3333,68.4,6.91
Borogontsy,38,RU,1653244722,78,62.6683,131.1683,38.26,4.7
Auki,22,SB,1653244722,88,-8.7676,160.7034,77.0,3.89
Exeter,20,GB,1653244722,68,50.7236,-3.5275,63.68,5.75
Woodward,0,US,1653244723,31,36.4337,-99.3904,65.97,11.5
Maniitsoq,100,GL,1653244723,99,65.4167,-52.9,32.22,17.47
Kloulklubed,100,PW,1653244724,75,7.0419,134.2556,83.68,7.96
Ermoupolis,7,GR,1653244724,49,37.4423,24.9425,72.97,8.05
Upernavik,100,GL,1653244725,100,72.7868,-56.1549,32.61,6.2
Yaring,100,TH,1653244725,86,6.8662,101.3689,79.56,7.63
Nizhneangarsk,97,RU,1653244725,96,55.7833,109.55,38.23,2.55
Weihai,10,CN,1653244726,70,37.5017,122.1136,63.32,9.84
Copiapo,0,CL,1653244726,32,-27.3667,-70.3333,60.49,6.26
Rawson,100,AR,1653244727,83,-43.3002,-65.1023,48.7,19.24
Nanortalik,100,GL,1653244727,98,60.1432,-45.2371,37.51,6.85
Veydelevka,100,RU,1653244727,91,50.1521,38.4492,49.06,9.28
Mitsamiouli,19,KM,1653244728,77,-11.3847,43.2844,81.14,5.06
Coihaique,75,CL,1653244728,70,-45.5752,-72.0662,40.95,6.91
Garmsar,0,IR,1653244728,18,35.2182,52.3409,73.85,5.64
Megion,96,RU,1653244729,69,61.0296,76.1136,64.42,13.71
Moirang,98,IN,1653244730,96,24.5,93.7667,67.05,1.79
College,40,US,1653244730,32,64.8569,-147.8028,63.09,6.91
Carlyle,100,US,1653244730,57,38.6103,-89.3726,64.13,5.01
Korla,100,CN,1653244731,14,41.7597,86.1469,80.1,14.65
Teahupoo,30,PF,1653244731,75,-17.8333,-149.2667,76.96,15.43
Rio Grande,21,GR,1653244731,61,38.3,21.7833,73.78,8.01
Alta Floresta,75,NO,1653244732,71,69.9689,23.2717,45.66,10.36
Cortes,80,ES,1653244732,33,41.9395,-1.4396,85.28,6.51
Shaunavon,11,CA,1653244733,29,49.6501,-108.4181,51.58,11.52
Paso De Carrasco,92,BO,1653244733,74,-14.4333,-67.5167,75.22,0.11
Kozhva,100,RU,1653244733,87,65.1073,57.0459,34.09,15.95
Machiques,10,VE,1653244734,50,10.0644,-72.545,91.58,2.8
Kargasok,20,RU,1653244734,66,59.0556,80.8572,62.74,19.55
Saldanha,91,ZA,1653244735,87,-33.0117,17.9442,55.45,5.77
Mahibadhoo,12,MV,1653244735,77,3.7833,72.9667,83.21,12.3
Harrisonburg,75,US,1653244735,53,38.4496,-78.8689,88.16,3.44
Wangaratta,75,AU,1653244736,100,-36.3667,146.3333,33.85,0.0
Bur Gabo,100,DK,1653244736,80,56.365,8.4267,59.43,6.73
Lixourion,0,GR,1653244737,94,38.2019,20.4314,69.8,9.22
Komsomolskiy,40,UZ,1653244737,67,40.4272,71.7189,57.92,4.61
Timmins,100,CA,1653244737,61,48.4669,-81.3331,48.02,2.3
Shar,100,KZ,1653244738,48,49.5886,81.0453,59.31,14.54
Kieta,75,PG,1653244738,82,-6.2167,155.6333,77.79,2.73
Kissamos,0,GR,1653244739,72,35.4939,23.6569,71.28,9.48
Meulaboh,100,ID,1653244739,87,4.1363,96.1285,78.08,2.1
Berlevag,75,NO,1653244492,81,70.8578,29.0864,40.95,8.05
Narsaq,100,GL,1653244740,99,60.9167,-46.05,37.62,5.66
Guiratinga,3,BR,1653244740,20,-16.3494,-53.7583,83.91,1.48
Kawana Waters,100,AU,1653244741,77,-23.3335,150.5051,66.11,4.61
Yongzhou,100,CN,1653244741,99,26.4559,111.5988,63.21,1.7
Bled,90,SI,1653244742,87,46.3692,14.1136,71.89,0.4
Marzuq,99,YE,1653244742,14,14.4,46.4667,78.53,0.45
Portland,100,US,1653244474,54,45.5234,-122.6762,70.86,5.01
Yarmouth,0,US,1653244742,75,41.7057,-70.2286,88.27,11.5
Svetlogorsk,100,BY,1653244743,93,52.6333,29.7333,47.43,6.24
Lakefield,100,US,1653244609,42,43.6775,-95.1717,54.79,11.5
Longjiang,7,CN,1653244743,47,47.3303,123.1836,61.63,7.65
Viedma,100,AR,1653244744,35,-40.8135,-62.9967,58.64,13.31
Montlucon,90,FR,1653244744,77,46.3333,2.6,70.39,10.98
Scicli,0,IT,1653244745,75,36.7902,14.7014,69.35,7.14
Clyde River,100,US,1653244572,63,41.3042,-82.9752,65.75,6.76
Pachino,0,IT,1653244745,72,36.7186,15.0907,68.04,13.87
Khorramshahr,0,IR,1653244746,19,30.4397,48.1664,91.36,9.22
Itainopolis,33,BR,1653244746,49,-7.4469,-41.4783,86.38,6.24
Kangaatsiaq,100,GL,1653244747,89,68.3065,-53.4641,31.1,12.88
Ginir,92,ET,1653244747,50,7.1333,40.7,61.83,4.88
Bonthe,100,SL,1653244748,85,7.5264,-12.505,78.6,9.17
Bowen,100,AU,1653244518,84,-20.0167,148.2333,68.81,9.1
Junagarh,57,IN,1653244749,37,19.8667,82.9333,88.47,4.18
Pingliang,3,CN,1653244748,82,35.5392,106.6861,57.34,2.8
Trincomalee,88,LK,1653244749,78,8.5711,81.2335,81.93,22.75
Mayumba,88,GA,1653244750,80,-3.432,10.6554,75.85,6.46
Moron,100,AR,1653244750,60,-34.6534,-58.6198,69.49,6.13
Maun,0,BW,1653244750,39,-19.9833,23.4167,60.76,6.91
Kununurra,93,AU,1653244751,77,-15.7667,128.7333,60.78,0.0
Axim,100,GH,1653244751,86,4.8699,-2.2405,76.17,4.92
Taoudenni,0,ML,1653244752,8,22.6783,-3.9836,97.81,10.27
Semnan,11,IR,1653244752,23,35.5729,53.3971,69.62,2.35
Kachiry,0,KZ,1653244753,38,53.0675,76.1036,52.21,13.91
Cidreira,100,BR,1653244584,66,-30.1811,-50.2056,62.58,4.29
Peterhead,99,GB,1653244753,92,57.5058,-1.7981,62.46,15.9
Jambi,100,ID,1653244754,98,-1.6,103.6167,74.84,2.68
Nedumangad,20,IN,1653244754,89,8.6,77.0,78.08,4.61
Elbrus,80,RU,1653244755,70,43.2577,42.6443,43.92,8.68
Singleton,99,AU,1653244755,92,-32.5667,151.1833,52.99,2.71
Frontera,100,MX,1653244756,78,26.9333,-101.45,74.95,11.5
Penzance,100,GB,1653244502,92,50.1186,-5.5371,57.88,10.27
Sharjah,0,AE,1653244756,62,25.3573,55.4033,88.09,3.44
Maloy,100,NO,1653244757,85,61.9353,5.1136,51.73,14.25
Dayong,99,CN,1653244757,95,25.0209,118.2898,67.17,0.45
Roald,75,NO,1653244757,87,62.5833,6.1333,60.17,6.91
Dingle,100,PH,1653244758,88,10.9995,122.6711,77.2,4.23
Gaoual,100,GN,1653244758,47,11.75,-13.2,88.63,11.45
Yar-Sale,100,RU,1653244758,93,66.8333,70.8333,33.46,25.57
Barguzin,100,RU,1653244759,86,53.6167,109.6167,45.66,2.89
Ponta Grossa,100,PT,1653244759,92,38.7333,-28.2667,59.68,7.0
San Isidro,100,ML,1653244760,34,13.3034,-4.8956,91.85,15.46
Praya,20,CV,1653244657,57,14.9215,-23.5087,77.54,19.57
Nago,100,JP,1653244760,83,26.5881,127.9761,74.25,6.42
Collie,96,AU,1653244761,90,-33.3667,116.15,54.34,11.41
Ostrovnoy,18,RU,1653244761,81,68.0531,39.5131,30.67,10.02
Shepsi,7,RU,1653244761,68,44.0361,39.1489,59.43,3.47
Bengkulu,28,ID,1653244762,90,-3.8004,102.2655,76.19,3.78
Nantucket,0,US,1653244762,77,41.2835,-70.0995,75.31,12.66
Yeppoon,100,AU,1653244763,88,-23.1333,150.7333,65.98,10.56
Yenagoa,100,NG,1653244763,91,4.9247,6.2642,76.59,4.09
Sorong,100,ID,1653244764,78,-0.8833,131.25,77.67,3.91
Altagracia De Orituco,91,NI,1653244764,73,11.5662,-85.5784,84.4,2.04
Dengfeng,0,CN,1653244764,78,34.4553,113.0281,64.27,3.65
Camacha,20,PT,1653244765,64,33.0833,-16.3333,65.62,12.66
Abha,0,SA,1653244765,23,18.2164,42.5053,75.02,0.0
Guanica,99,PR,1653244766,77,17.9716,-66.908,83.5,7.05
Puerto Varas,0,ES,1653244660,77,36.5939,-6.233,73.62,14.97
Sanming,100,CN,1653244766,99,26.2486,117.6186,67.98,1.12
Namatanai,67,PG,1653244767,72,-3.6667,152.4333,79.05,9.4
Flin Flon,69,FR,1653244767,70,48.4982,6.6557,69.39,4.76
Catio,86,GW,1653244767,65,11.2833,-15.25,80.29,11.9
Yacuiba,0,BO,1653244768,37,-22.038,-63.6797,75.07,7.36
Andrelandia,0,BR,1653244768,49,-21.7397,-44.3092,68.34,2.46
Hokitika,0,NZ,1653244769,80,-42.7167,170.9667,44.46,5.01
Alekseyevsk,56,RU,1653244769,91,57.8406,108.3492,42.51,0.38
Mehamn,95,NO,1653244770,88,71.0357,27.8492,40.91,5.59
Peleduy,89,RU,1653244770,95,59.6289,112.7406,42.62,0.58
Kautokeino,100,NO,1653244771,97,69.0125,23.0412,35.82,2.93
Kasama,88,ZM,1653244771,60,-10.2129,31.1808,66.29,2.77
Maragogi,5,BR,1653244771,79,-9.0122,-35.2225,79.2,15.23
Virginia Beach,40,US,1653244553,60,37.5481,-77.4467,92.34,8.05
San Cristobal,100,ML,1653244620,34,13.3034,-4.8956,91.85,15.46
Caarapo,32,BR,1653244772,40,-22.6342,-54.8222,70.97,4.38
Victoria,100,HK,1653244606,84,22.2855,114.1577,77.38,20.0
Khandyga,21,RU,1653244773,80,62.6667,135.6,36.82,2.1
Laguna,0,US,1653244773,30,38.421,-121.4238,84.49,5.75
Batticaloa,16,LK,1653244774,69,7.7102,81.6924,81.63,10.33
Pisco,20,PE,1653244774,77,-13.7,-76.2167,67.01,10.36
Avera,100,US,1653244774,36,33.194,-82.5271,88.38,11.54
Novo Aripuana,100,CU,1653244775,50,22.7847,-82.2251,89.94,9.19
Sasebo,100,JP,1653244775,82,33.1592,129.7228,64.04,1.21
Atherton,99,GB,1653244776,74,53.5237,-2.4935,64.06,5.99
Sept-Iles,75,CA,1653244518,58,50.2001,-66.3821,57.72,9.22
Yakeshi,5,CN,1653244776,54,49.2833,120.7333,51.1,8.1
Rehoboth,6,NA,1653244777,47,-23.3167,17.0833,53.26,6.64
Fortuna,75,US,1653244777,84,40.5982,-124.1573,59.86,11.5
Leduc,75,CA,1653244778,22,53.2668,-113.552,65.16,15.01
Nabire,58,ID,1653244778,91,-3.3667,135.4833,74.97,3.29
Salalah,75,OM,1653244778,84,17.0151,54.0924,84.29,9.22
Kalianget,78,ID,1653244779,76,-7.05,113.9333,81.77,12.01
Deputatskiy,84,RU,1653244779,94,69.3,139.9,27.28,3.36
Vestmanna,100,FO,1653244780,81,62.1564,-7.1664,49.12,2.3
Tateyama,14,JP,1653244780,88,34.9833,139.8667,66.0,12.5
Klaksvik,53,FO,1653244781,89,62.2266,-6.589,50.92,3.78
Sinop,18,TR,1653244781,59,41.7711,34.8709,54.21,6.11
Guerrero,1,MX,1653244781,27,17.6667,-100.0,94.12,4.76
Zhangye,72,CN,1653244782,31,38.9342,100.4517,67.73,9.8
Ridgecrest,0,US,1653244642,11,35.6225,-117.6709,85.01,1.99
Usinsk,100,RU,1653244734,93,65.9939,57.5281,32.07,29.66
Trairi,24,BR,1653244604,86,-3.2778,-39.2689,79.92,8.1
North Myrtle Beach,100,FR,1653244783,73,50.3333,3.6667,71.15,3.44
Inuvik,75,CA,1653244783,66,68.3499,-133.7218,27.36,6.91
Kungurtug,100,RU,1653244784,38,50.5994,97.5228,52.75,3.44
Luena,16,AO,1653244655,54,-11.7833,19.9167,60.53,4.27
Juneau,40,US,1653244509,62,58.3019,-134.4197,61.84,5.75
Pasni,0,PK,1653244784,82,25.2631,63.471,83.8,7.78
Gornopravdinsk,100,RU,1653244785,87,60.05,69.9,43.21,8.21
Camocim,27,BR,1653244785,83,-2.9022,-40.8411,80.76,4.59
Dali,62,CN,1653244786,90,25.7,100.1833,61.12,3.4
Sorata,18,BO,1653244786,36,-15.7667,-68.6333,56.82,7.49
Bereda,100,ES,1653244786,99,43.2686,-7.5406,61.57,3.04
Port-Gentil,75,GA,1653244643,83,-0.7193,8.7815,78.76,10.36
Daru,43,PG,1653244787,81,-9.0763,143.2092,80.24,12.57
Ust-Kuyga,100,RU,1653244787,88,70.0167,135.6,32.25,1.23
Noumea,27,NC,1653244788,99,-22.2763,166.4572,78.78,5.48
Ler,98,SS,1653244788,70,8.3018,30.1418,80.17,4.03
Price,0,US,1653244789,12,39.5994,-110.8107,66.11,11.5
Kashan,0,IR,1653244789,16,33.9831,51.4364,77.23,1.28
Cape Coast,100,CL,1653244595,89,-36.413,-71.9028,49.42,17.98
Manokwari,86,ID,1653244790,73,-0.8667,134.0833,78.26,3.91
Odweyne,92,SO,1653244790,30,9.4092,45.064,83.73,6.71
Rorvik,0,NO,1653244790,82,64.8621,11.2373,58.98,9.22
Marsa Matruh,20,MT,1653244791,88,35.8792,14.4953,70.29,5.75
Tatawin,0,TN,1653244664,16,32.9297,10.4518,80.04,10.56
Bull Savanna,100,LR,1653244792,91,6.1992,-10.2829,75.6,4.72
Suez,0,EG,1653244792,38,29.9737,32.5263,73.85,14.65
Montbrison,100,FR,1653244793,97,45.6667,4.0833,70.14,5.55
Pokhara,100,NP,1653244793,71,28.2333,83.9833,66.9,4.5
Mlonggo,25,ID,1653244794,89,-6.5333,110.7,76.68,4.68
Sao Jose Da Coroa Grande,0,IN,1653244794,45,20.5113,76.2129,82.15,17.36
Luanda,20,AO,1653244794,78,-8.8368,13.2343,75.2,8.05
Airai,50,TL,1653244795,90,-8.9266,125.4092,58.64,3.58
Bundaberg,100,AU,1653244795,97,-24.85,152.35,63.21,1.99
Oktyabrskoye,0,RU,1653244796,48,43.0645,44.7417,64.54,8.95
Coos Bay,100,US,1653244796,64,43.1665,-124.0015,65.17,1.99
Bambous Virieux,5,MU,1653244797,73,-20.2567,57.4061,74.35,12.21
Barwani,0,IN,1653244797,60,22.0333,74.9,85.39,16.62
Amazar,100,RU,1653244798,98,53.858,120.875,40.73,2.62
Shingu,0,JP,1653244798,74,33.7333,135.9833,62.85,6.35
Erzin,48,TR,1653244798,79,36.9559,36.2,62.15,5.57
Sijunjung,98,ID,1653244799,91,-0.6876,100.9537,71.44,1.99
San Policarpo,100,ML,1653244611,34,13.3034,-4.8956,91.85,15.46
Mahalapye,0,BW,1653244799,48,-23.1041,26.8142,53.6,2.42
Oranjemund,12,NA,1653244800,75,-28.55,16.4333,56.1,9.6
Egvekinot,99,RU,1653244800,56,66.3167,-179.1667,43.39,3.33
Atar,98,MR,1653244801,13,20.5169,-13.0499,105.85,11.5
Voh,2,NC,1653244801,91,-20.9667,164.7,72.73,5.06
Tukrah,0,LY,1653244802,74,32.5341,20.5791,65.34,3.8
Diamantina,1,BR,1653244802,44,-18.2494,-43.6003,67.64,5.23
Chulman,93,RU,1653244803,99,56.8479,124.9104,28.53,0.83
Lebedinyy,15,RU,1653244803,70,58.5167,125.5167,34.95,3.96
Ormara,0,PK,1653244804,90,25.2088,64.6357,82.4,14.7
Puerto Quijarro,0,ES,1653244582,77,36.5939,-6.233,73.62,14.97
Sinnamary,94,GF,1653244804,80,5.3833,-52.95,80.83,6.42
Mangrol,100,IN,1653244805,72,21.1167,70.1167,84.42,18.16
Grand Gaube,100,US,1653244805,12,38.8755,-109.5012,69.94,7.43
Severnyy,0,RU,1653244805,87,50.677,36.5532,46.44,8.95
Partizansk,6,RU,1653244806,91,43.1258,133.1339,47.68,2.86
Prince Rupert,93,CA,1653244807,29,52.9669,-108.3847,59.16,13.4
Ardea,40,IT,1653244807,85,41.6123,12.5143,75.33,5.75
Codrington,4,AU,1653244807,95,-38.2667,141.9667,43.59,7.72
Machacamarca,9,BO,1653244808,12,-18.1667,-67.0333,54.55,14.79
Pandan,100,PH,1653244808,87,14.0453,124.1694,78.96,7.31
Wabana,75,CA,1653244809,35,47.6332,-52.9481,63.18,18.41
Geraldton,40,AU,1653244809,72,-28.7667,114.6,64.81,13.8
Huarmey,9,PE,1653244809,72,-10.0681,-78.1522,70.39,9.57
Portobelo,27,PA,1653244810,80,9.55,-79.65,84.72,8.12
Udachnyy,10,RU,1653244810,52,66.4167,112.4,48.45,2.1
South Lake Tahoe,63,IS,1653244811,85,64.0,-19.0,42.76,13.56
Ketchikan,0,US,1653244811,51,55.3422,-131.6461,57.67,11.5
Mastic Beach,0,US,1653244718,78,40.802,-72.8409,82.54,11.5
Michigan City,100,US,1653244641,50,44.2503,-85.5003,57.96,11.5
Dingzhou,88,CN,1653244812,41,38.5131,114.9956,62.71,1.81
Sao Gabriel,0,IN,1653244794,45,20.5113,76.2129,82.15,17.36
Liverpool,75,GB,1653244564,75,53.4106,-2.9779,64.45,14.97
Cagayan De Tawi-Tawi,100,PH,1653244813,78,6.9747,118.5144,81.28,4.0
Maceio,75,BR,1653244732,69,-9.6658,-35.7353,81.84,11.5
Itoman,75,JP,1653244814,81,26.1247,127.6694,75.22,9.22
Mirnyy,87,RU,1653244814,85,62.5353,113.9611,46.67,1.95
Morondava,1,MG,1653244814,75,-20.2833,44.2833,74.61,9.42
Anito,68,PH,1653244815,92,12.4497,125.2886,76.73,7.16
Cururupu,13,BR,1653244816,76,-1.8283,-44.8683,82.49,3.76
Ballina,30,AU,1653244816,83,-28.8667,153.5667,58.78,11.79
Gweta,0,BW,1653244816,37,-20.1833,25.2333,56.73,7.27
Fort Nelson,77,NL,1653244817,75,52.6517,6.3861,67.05,7.52
Arlit,100,NE,1653244590,13,18.7369,7.3853,94.44,7.58
